[
  {
    "city": "Tashkent", 
    "lat": "41.3111", 
    "lng": "69.2797", 
    "country": "Uzbekistan", 
    "iso2": "UZ", 
    "admin_name": "Toshkent", 
    "capital": "primary", 
    "population": "2956384", 
    "population_proper": "2956384"
  }, 
  {
    "city": "Namangan", 
    "lat": "41.0011", 
    "lng": "71.6683", 
    "country": "Uzbekistan", 
    "iso2": "UZ", 
    "admin_name": "Namangan", 
    "capital": "admin", 
    "population": "626120", 
    "population_proper": "626120"
  }, 
  {
    "city": "Andijon", 
    "lat": "40.7833", 
    "lng": "72.3333", 
    "country": "Uzbekistan", 
    "iso2": "UZ", 
    "admin_name": "Andijon", 
    "capital": "admin", 
    "population": "547800", 
    "population_proper": "547800"
  }, 
  {
    "city": "Samarkand", 
    "lat": "39.6547", 
    "lng": "66.9758", 
    "country": "Uzbekistan", 
    "iso2": "UZ", 
    "admin_name": "Samarqand", 
    "capital": "admin", 
    "population": "546303", 
    "population_proper": "546303"
  }, 
  {
    "city": "Nukus", 
    "lat": "42.4667", 
    "lng": "59.6000", 
    "country": "Uzbekistan", 
    "iso2": "UZ", 
    "admin_name": "Qoraqalpog‘iston", 
    "capital": "admin", 
    "population": "319583", 
    "population_proper": "319583"
  }, 
  {
    "city": "Farg‘ona", 
    "lat": "40.3864", 
    "lng": "71.7864", 
    "country": "Uzbekistan", 
    "iso2": "UZ", 
    "admin_name": "Farg‘ona", 
    "capital": "admin", 
    "population": "288850", 
    "population_proper": "288850"
  }, 
  {
    "city": "Bukhara", 
    "lat": "39.7667", 
    "lng": "64.4231", 
    "country": "Uzbekistan", 
    "iso2": "UZ", 
    "admin_name": "Buxoro", 
    "capital": "admin", 
    "population": "280187", 
    "population_proper": "280187"
  }, 
  {
    "city": "Qarshi", 
    "lat": "38.8667", 
    "lng": "65.8000", 
    "country": "Uzbekistan", 
    "iso2": "UZ", 
    "admin_name": "Qashqadaryo", 
    "capital": "admin", 
    "population": "274891", 
    "population_proper": "274891"
  }, 
  {
    "city": "Qo‘qon", 
    "lat": "40.5286", 
    "lng": "70.9425", 
    "country": "Uzbekistan", 
    "iso2": "UZ", 
    "admin_name": "Farg‘ona", 
    "capital": "", 
    "population": "259700", 
    "population_proper": "259700"
  }, 
  {
    "city": "Marg‘ilon", 
    "lat": "40.4711", 
    "lng": "71.7247", 
    "country": "Uzbekistan", 
    "iso2": "UZ", 
    "admin_name": "Farg‘ona", 
    "capital": "", 
    "population": "215400", 
    "population_proper": "215400"
  }, 
  {
    "city": "Jizzax", 
    "lat": "40.1158", 
    "lng": "67.8422", 
    "country": "Uzbekistan", 
    "iso2": "UZ", 
    "admin_name": "Jizzax", 
    "capital": "admin", 
    "population": "163200", 
    "population_proper": "163200"
  }, 
  {
    "city": "Chirchiq", 
    "lat": "41.4667", 
    "lng": "69.5833", 
    "country": "Uzbekistan", 
    "iso2": "UZ", 
    "admin_name": "Toshkent", 
    "capital": "", 
    "population": "159400", 
    "population_proper": "159400"
  }, 
  {
    "city": "Urganch", 
    "lat": "41.5500", 
    "lng": "60.6333", 
    "country": "Uzbekistan", 
    "iso2": "UZ", 
    "admin_name": "Xorazm", 
    "capital": "admin", 
    "population": "150000", 
    "population_proper": "150000"
  }, 
  {
    "city": "Olmaliq", 
    "lat": "40.8500", 
    "lng": "69.6000", 
    "country": "Uzbekistan", 
    "iso2": "UZ", 
    "admin_name": "Toshkent", 
    "capital": "", 
    "population": "141894", 
    "population_proper": "141894"
  }, 
  {
    "city": "Termiz", 
    "lat": "37.2167", 
    "lng": "67.2833", 
    "country": "Uzbekistan", 
    "iso2": "UZ", 
    "admin_name": "Surxondaryo", 
    "capital": "admin", 
    "population": "136200", 
    "population_proper": "136200"
  }, 
  {
    "city": "Navoiy", 
    "lat": "40.0844", 
    "lng": "65.3792", 
    "country": "Uzbekistan", 
    "iso2": "UZ", 
    "admin_name": "Navoiy", 
    "capital": "admin", 
    "population": "134100", 
    "population_proper": "134100"
  }, 
  {
    "city": "Angren", 
    "lat": "41.0167", 
    "lng": "70.1436", 
    "country": "Uzbekistan", 
    "iso2": "UZ", 
    "admin_name": "Toshkent", 
    "capital": "", 
    "population": "126962", 
    "population_proper": "126962"
  }, 
  {
    "city": "Kogon Shahri", 
    "lat": "39.7275", 
    "lng": "64.5547", 
    "country": "Uzbekistan", 
    "iso2": "UZ", 
    "admin_name": "Buxoro", 
    "capital": "minor", 
    "population": "107566", 
    "population_proper": "107566"
  }, 
  {
    "city": "Xiva", 
    "lat": "41.3814", 
    "lng": "60.3611", 
    "country": "Uzbekistan", 
    "iso2": "UZ", 
    "admin_name": "Xorazm", 
    "capital": "minor", 
    "population": "105300", 
    "population_proper": "105300"
  }, 
  {
    "city": "Shahrisabz", 
    "lat": "39.0500", 
    "lng": "66.8333", 
    "country": "Uzbekistan", 
    "iso2": "UZ", 
    "admin_name": "Qashqadaryo", 
    "capital": "", 
    "population": "100300", 
    "population_proper": "100300"
  }, 
  {
    "city": "Chust", 
    "lat": "40.9978", 
    "lng": "71.2403", 
    "country": "Uzbekistan", 
    "iso2": "UZ", 
    "admin_name": "Namangan", 
    "capital": "", 
    "population": "100200", 
    "population_proper": "100200"
  }, 
  {
    "city": "Shahrixon", 
    "lat": "40.7167", 
    "lng": "72.0500", 
    "country": "Uzbekistan", 
    "iso2": "UZ", 
    "admin_name": "Andijon", 
    "capital": "minor", 
    "population": "71400", 
    "population_proper": "71400"
  }, 
  {
    "city": "Asaka", 
    "lat": "40.6333", 
    "lng": "72.2333", 
    "country": "Uzbekistan", 
    "iso2": "UZ", 
    "admin_name": "Andijon", 
    "capital": "minor", 
    "population": "62200", 
    "population_proper": "62200"
  }, 
  {
    "city": "Guliston", 
    "lat": "40.4833", 
    "lng": "68.7833", 
    "country": "Uzbekistan", 
    "iso2": "UZ", 
    "admin_name": "Sirdaryo", 
    "capital": "admin", 
    "population": "55600", 
    "population_proper": "55600"
  }, 
  {
    "city": "Quva", 
    "lat": "40.5247", 
    "lng": "72.0700", 
    "country": "Uzbekistan", 
    "iso2": "UZ", 
    "admin_name": "Farg‘ona", 
    "capital": "minor", 
    "population": "46400", 
    "population_proper": "46400"
  }, 
  {
    "city": "Xonobod", 
    "lat": "40.8000", 
    "lng": "73.0000", 
    "country": "Uzbekistan", 
    "iso2": "UZ", 
    "admin_name": "Andijon", 
    "capital": "", 
    "population": "42301", 
    "population_proper": "42301"
  }, 
  {
    "city": "Paxtaobod", 
    "lat": "40.9294", 
    "lng": "72.4969", 
    "country": "Uzbekistan", 
    "iso2": "UZ", 
    "admin_name": "Andijon", 
    "capital": "minor", 
    "population": "34400", 
    "population_proper": "34400"
  }, 
  {
    "city": "Buloqboshi", 
    "lat": "40.6222", 
    "lng": "72.5028", 
    "country": "Uzbekistan", 
    "iso2": "UZ", 
    "admin_name": "Andijon", 
    "capital": "minor", 
    "population": "32200", 
    "population_proper": "32200"
  }, 
  {
    "city": "Qo‘rg‘ontepa", 
    "lat": "40.7336", 
    "lng": "72.7583", 
    "country": "Uzbekistan", 
    "iso2": "UZ", 
    "admin_name": "Andijon", 
    "capital": "minor", 
    "population": "30800", 
    "population_proper": "30800"
  }, 
  {
    "city": "Dardoq", 
    "lat": "40.8156", 
    "lng": "72.8311", 
    "country": "Uzbekistan", 
    "iso2": "UZ", 
    "admin_name": "Andijon", 
    "capital": "", 
    "population": "26055", 
    "population_proper": "26055"
  }, 
  {
    "city": "Poytug‘", 
    "lat": "40.9000", 
    "lng": "72.2500", 
    "country": "Uzbekistan", 
    "iso2": "UZ", 
    "admin_name": "Andijon", 
    "capital": "minor", 
    "population": "26000", 
    "population_proper": "26000"
  }, 
  {
    "city": "Oltiariq", 
    "lat": "40.3917", 
    "lng": "71.4767", 
    "country": "Uzbekistan", 
    "iso2": "UZ", 
    "admin_name": "Farg‘ona", 
    "capital": "minor", 
    "population": "25543", 
    "population_proper": "25543"
  }, 
  {
    "city": "Baliqchi", 
    "lat": "40.9000", 
    "lng": "71.8528", 
    "country": "Uzbekistan", 
    "iso2": "UZ", 
    "admin_name": "Andijon", 
    "capital": "minor", 
    "population": "25100", 
    "population_proper": "25100"
  }, 
  {
    "city": "Chinobod", 
    "lat": "40.8767", 
    "lng": "71.9725", 
    "country": "Uzbekistan", 
    "iso2": "UZ", 
    "admin_name": "Andijon", 
    "capital": "", 
    "population": "24000", 
    "population_proper": "24000"
  }, 
  {
    "city": "Jalolquduq", 
    "lat": "40.7194", 
    "lng": "72.6428", 
    "country": "Uzbekistan", 
    "iso2": "UZ", 
    "admin_name": "Andijon", 
    "capital": "", 
    "population": "24000", 
    "population_proper": "24000"
  }, 
  {
    "city": "Rishton", 
    "lat": "40.3567", 
    "lng": "71.2847", 
    "country": "Uzbekistan", 
    "iso2": "UZ", 
    "admin_name": "Farg‘ona", 
    "capital": "minor", 
    "population": "23706", 
    "population_proper": "23706"
  }, 
  {
    "city": "Yangi Marg‘ilon", 
    "lat": "40.4311", 
    "lng": "71.7183", 
    "country": "Uzbekistan", 
    "iso2": "UZ", 
    "admin_name": "Farg‘ona", 
    "capital": "", 
    "population": "23531", 
    "population_proper": "23531"
  }, 
  {
    "city": "Beshariq", 
    "lat": "40.4358", 
    "lng": "70.6103", 
    "country": "Uzbekistan", 
    "iso2": "UZ", 
    "admin_name": "Farg‘ona", 
    "capital": "minor", 
    "population": "22800", 
    "population_proper": "22800"
  }, 
  {
    "city": "Xo‘jaobod", 
    "lat": "40.6653", 
    "lng": "72.5667", 
    "country": "Uzbekistan", 
    "iso2": "UZ", 
    "admin_name": "Andijon", 
    "capital": "minor", 
    "population": "20200", 
    "population_proper": "20200"
  }, 
  {
    "city": "Toshloq", 
    "lat": "40.4808", 
    "lng": "71.7608", 
    "country": "Uzbekistan", 
    "iso2": "UZ", 
    "admin_name": "Farg‘ona", 
    "capital": "minor", 
    "population": "18600", 
    "population_proper": "18600"
  }, 
  {
    "city": "Vodil", 
    "lat": "40.1789", 
    "lng": "71.7297", 
    "country": "Uzbekistan", 
    "iso2": "UZ", 
    "admin_name": "Farg‘ona", 
    "capital": "minor", 
    "population": "16200", 
    "population_proper": "16200"
  }, 
  {
    "city": "Yaypan", 
    "lat": "40.3758", 
    "lng": "70.8156", 
    "country": "Uzbekistan", 
    "iso2": "UZ", 
    "admin_name": "Farg‘ona", 
    "capital": "minor", 
    "population": "15984", 
    "population_proper": "15984"
  }, 
  {
    "city": "Marhamat", 
    "lat": "40.5000", 
    "lng": "72.3333", 
    "country": "Uzbekistan", 
    "iso2": "UZ", 
    "admin_name": "Andijon", 
    "capital": "minor", 
    "population": "13600", 
    "population_proper": "13600"
  }, 
  {
    "city": "Yozyovon", 
    "lat": "40.6619", 
    "lng": "71.7431", 
    "country": "Uzbekistan", 
    "iso2": "UZ", 
    "admin_name": "Farg‘ona", 
    "capital": "minor", 
    "population": "12800", 
    "population_proper": "12800"
  }, 
  {
    "city": "Kuyganyor", 
    "lat": "40.8611", 
    "lng": "72.3111", 
    "country": "Uzbekistan", 
    "iso2": "UZ", 
    "admin_name": "Andijon", 
    "capital": "minor", 
    "population": "12200", 
    "population_proper": "12200"
  }, 
  {
    "city": "Dang‘ara", 
    "lat": "40.5831", 
    "lng": "70.9100", 
    "country": "Uzbekistan", 
    "iso2": "UZ", 
    "admin_name": "Farg‘ona", 
    "capital": "minor", 
    "population": "11500", 
    "population_proper": "11500"
  }, 
  {
    "city": "Oltinko‘l", 
    "lat": "40.8000", 
    "lng": "72.1667", 
    "country": "Uzbekistan", 
    "iso2": "UZ", 
    "admin_name": "Andijon", 
    "capital": "minor", 
    "population": "6500", 
    "population_proper": "6500"
  }, 
  {
    "city": "Oqoltin", 
    "lat": "40.7500", 
    "lng": "71.7056", 
    "country": "Uzbekistan", 
    "iso2": "UZ", 
    "admin_name": "Andijon", 
    "capital": "minor", 
    "population": "5700", 
    "population_proper": "5700"
  }, 
  {
    "city": "Navbahor", 
    "lat": "40.4808", 
    "lng": "70.7708", 
    "country": "Uzbekistan", 
    "iso2": "UZ", 
    "admin_name": "Farg‘ona", 
    "capital": "minor", 
    "population": "4500", 
    "population_proper": "4500"
  }, 
  {
    "city": "Uchko‘prik", 
    "lat": "40.5422", 
    "lng": "71.0608", 
    "country": "Uzbekistan", 
    "iso2": "UZ", 
    "admin_name": "Farg‘ona", 
    "capital": "minor", 
    "population": "4300", 
    "population_proper": "4300"
  }, 
  {
    "city": "Langar", 
    "lat": "40.5233", 
    "lng": "71.6539", 
    "country": "Uzbekistan", 
    "iso2": "UZ", 
    "admin_name": "Farg‘ona", 
    "capital": "minor", 
    "population": "1079", 
    "population_proper": "1079"
  }, 
  {
    "city": "Oxunboboyev", 
    "lat": "40.7198", 
    "lng": "72.6428", 
    "country": "Uzbekistan", 
    "iso2": "UZ", 
    "admin_name": "Andijon", 
    "capital": "minor", 
    "population": "", 
    "population_proper": ""
  }
]